[
  {"location":"100 20th Ave SW Vero Beach, Fl 32962","date":"2025-09-05 00:00:00","url":"https://www.ircsheriff.org/booking-details/1149988264","member":"true","charge":"COC Civil (NON-CRIMINAL)","lat":"27.601419","lon":"-80.405777","formatted":"100 20th Avenue Southwest, Vero Beach, FL 32962, United States of America"},
  {"location":"1000 36th Street, Vero Beach, Fl 32960","date":"2025-05-25 00:00:00","url":"https://www.ircsheriff.org/booking-details/1563990324","member":"false","charge":"Trespass","lat":"27.620192","lon":"-80.422524","formatted":"1000 36th Avenue, Vero Beach, FL 32960, United States of America"},
  {"location":"1120 US HIGHWAY 1 VERO BEACH, FL 32960","date":"2025-07-19 00:00:00","url":"https://www.ircsheriff.org/booking-details/574610235","member":"true","charge":"Trespass","lat":"27.622712","lon":"-80.388992","formatted":"1120 Us Highway 1, Vero Beach, FL 32960, United States of America"},
  {"location":"1150 US Highway 1, Vero Beach, FL 32960","date":"2025-09-06 00:00:00","url":"https://www.ircsheriff.org/booking-details/445817378","member":"false","charge":"Trespass","lat":"27.622712","lon":"-80.388992","formatted":"1150 Us Highway 1, Vero Beach, FL 32960, United States of America"},
  {"location":"1180 U S Highway 1 Vero Beach, FL 32960","date":"2025-04-21 00:00:00","url":"https://www.ircsheriff.org/booking-details/2135274894","member":"false","charge":"Trespass","lat":"27.622835","lon":"-80.388666","formatted":"1180 U S Highway 1, Vero Beach, FL 32960, United States of America"},
  {"location":"1180 US Highway 1 Vero Beach, Fl 32960","date":"2025-08-19 00:00:00","url":"https://www.ircsheriff.org/booking-details/1049632944","member":"false","charge":"Trespass","lat":"27.623018","lon":"-80.388586","formatted":"1180 Us Highway 1, Vero Beach, FL 32960, United States of America"},
  {"location":"1180 US Hwy 1 Vero Beach, FL 32960","date":"2025-03-31 00:00:00","url":"https://www.ircsheriff.org/booking-details/1962308578","member":"true","charge":"Trespass","lat":"27.623018","lon":"-80.388586","formatted":"1180 Us Highway 1, Vero Beach, FL 32960, United States of America"},
  {"location":"1191 US HWY 1 VERO BEACH FL 32960","date":"2025-07-19 00:00:00","url":"https://www.ircsheriff.org/booking-details/20713858","member":"true","charge":"Trespass","lat":"27.622720100000002","lon":"-80.39024490670703","formatted":"Staples, 1191 US 1, Vero Beach, FL 32960, United States of America"},
  {"location":"1196 Old Dixie Highway Vero Beach Fl 32960","date":"2025-08-11 00:00:00","url":"https://www.ircsheriff.org/booking-details/1337581626","member":"false","charge":"Trespass","lat":"27.6232353970611","lon":"-80.39414971135453","formatted":"1196 Old Dixie Highway, Vero Beach, FL 32960, United States of America"},
  {"location":"1255 US HIGHWAY 1 VERO BEACH, FL 32967","date":"2025-05-24 00:00:00","url":"https://www.ircsheriff.org/booking-details/403901035","member":"false","charge":"Trespass","lat":"27.624461","lon":"-80.390983","formatted":"1255 Us Highway 1, Vero Beach, FL 32960, United States of America"},
  {"location":"13395 US Highway 1 Sebastian, FL 32958","date":"2025-09-17 00:00:00","url":"https://www.ircsheriff.org/booking-details/2044401188","member":"false","charge":"MISD FTA","lat":"27.83748075","lon":"-80.48566382212907","formatted":"McDonald's, 13395 US 1, Sebastian, FL 32958, United States of America"},
  {"location":"1340 US Highway 1 Vero Beach, FL","date":"2025-09-08 00:00:00","url":"https://www.ircsheriff.org/booking-details/1673472943","member":"true","charge":"Trespass","lat":"27.625939","lon":"-80.388897","formatted":"iTHINK Financial, 1340 Us Highway 1, Vero Beach, FL 32960, United States of America"},
  {"location":"13435 US Hwy 1 Sebastian FL 32958","date":"2025-03-23 00:00:00","url":"https://www.ircsheriff.org/booking-details/708045252","member":"false","charge":"Trespass","lat":"27.83839485","lon":"-80.48713385838171","formatted":"Publix, 13435 US 1, Sebastian, FL 32958, United States of America"},
  {"location":"1600 21st, Vero Beach, FL 32960","date":"2025-09-03 00:00:00","url":"https://www.ircsheriff.org/booking-details/103602230","member":"false","charge":"Trespass","lat":"27.640652850000002","lon":"-80.40192320673603","formatted":"Indian River County Main Library, 1600 21st Street, Vero Beach, FL 32960, United States of America"},
  {"location":"1690 US HWY1 Vero Beach, FL 32960","date":"2025-04-05 00:00:00","url":"https://www.ircsheriff.org/booking-details/195976740","member":"false","charge":"Trespass","lat":"27.632136","lon":"-80.388708","formatted":"1690 Us Highway 1, Vero Beach, FL 32960, United States of America"},
  {"location":"1690 US1, Vero Beach, FL 32960","date":"2025-07-22 00:00:00","url":"https://www.ircsheriff.org/booking-details/2038906794","member":"false","charge":"Trespass","lat":"27.6480082","lon":"-80.3999508","formatted":"US1 & 28th Street, US 1, Vero Beach, FL 34960, United States of America"},
  {"location":"1755 6th Avenue 6 Vero Beach, FL 32960","date":"2025-09-08 00:00:00","url":"https://www.ircsheriff.org/booking-details/633054301","member":"true","charge":"Trespass Structure or Conveyance","lat":"27.633537","lon":"-80.38638","formatted":"1755 6th Avenue, Vero Beach, FL 32960, United States of America"},
  {"location":"1815 Bridgepointe Cir 7 Vero Beach FL 32967","date":"2025-09-10 00:00:00","url":"https://www.ircsheriff.org/booking-details/1829383712","member":"false","charge":"Trespass","lat":"27.67557","lon":"-80.40159","formatted":"1815 Bridgepointe Circle, Vero Beach, FL 32967, United States of America"},
  {"location":"1901 US 1 Vero Beach, Fl 32960","date":"2025-09-22 00:00:00","url":"https://www.ircsheriff.org/booking-details/1414368454","member":"true","charge":"Trespass","lat":"27.636408","lon":"-80.389525","formatted":"1901 Us Highway 1, Vero Beach, FL 32960, United States of America"},
  {"location":"1901 US1 Highway Vero Beach FL 32960","date":"2025-09-25 00:00:00","url":"https://www.ircsheriff.org/booking-details/1689943062","member":"false","charge":"Trespass","lat":"27.636408","lon":"-80.389525","formatted":"1901 Us Highway 1, Vero Beach, FL 32960, United States of America"},
  {"location":"1909 20th Street Vero Beach, FL","date":"2025-04-12 00:00:00","url":"https://www.ircsheriff.org/booking-details/1614989612","member":"false","charge":"Trespass Structure or Conveyance","lat":"27.638776275510203","lon":"-80.40494229591837","formatted":"1909 20th Street, Vero Beach, FL 32960, United States of America"},
  {"location":"1920 14th Ave, Vero Beach, Fl 32960","date":"2025-05-01 00:00:00","url":"https://www.ircsheriff.org/booking-details/1802963101","member":"false","charge":"Trespass","lat":"27.636866704034652","lon":"-80.39931150778855","formatted":"1920 14th Avenue, Vero Beach, FL 32960, United States of America"},
  {"location":"2000 16th Ave, Vero Beach FL","date":"2025-03-25 00:00:00","url":"https://www.ircsheriff.org/booking-details/528161557","member":"true","charge":"Trespass","lat":"27.638751","lon":"-80.401303","formatted":"2000 16th Avenue, Vero Beach, FL 32960, United States of America"},
  {"location":"2011 US Hwy 1 Sebastian FL 32958","date":"2025-03-12 00:00:00","url":"https://www.ircsheriff.org/booking-details/487516444","member":"false","charge":"Trespass","lat":"27.78174871880393","lon":"-80.45184350780046","formatted":"US 1, Indian River County, FL 32958, United States of America"},
  {"location":"2160 14th Ave Vero Beach, FL","date":"2025-08-01 00:00:00","url":"https://www.ircsheriff.org/booking-details/8470888","member":"false","charge":"Trespass","lat":"27.640491769271122","lon":"-80.39923606449128","formatted":"2160 14th Avenue, Vero Beach, FL 32960, United States of America"},
  {"location":"2506 17th Avenue Vero Beach, FL 32960","date":"2025-09-26 00:00:00","url":"https://www.ircsheriff.org/booking-details/1740865089","member":"false","charge":"OR PROWLING","lat":"27.6445987861044","lon":"-80.402207","formatted":"2506 17th Avenue, Vero Beach, FL 32960, United States of America"},
  {"location":"4055 41 ST Vero Beach, fl 32960","date":"2025-04-14 00:00:00","url":"https://www.ircsheriff.org/booking-details/626410509","member":"true","charge":"Non-Criminal - Returned For Court","lat":"27.6678878","lon":"-80.4268549","formatted":"4055 41st Street, Gifford, FL 32960, United States of America"},
  {"location":"4055 41st Ave Vero Beach FL 32960","date":"2025-06-04 00:00:00","url":"https://www.ircsheriff.org/booking-details/1163060671","member":"true","charge":"Trespass","lat":"27.66512695","lon":"-80.42757244017187","formatted":"Indian River County Sheriffs Office, 4055 41st Avenue, Vero Beach, FL 32960, United States of America"},
  {"location":"4055 41st Ave Vero Beach FL 32960","date":"2025-03-21 00:00:00","url":"https://www.ircsheriff.org/booking-details/1644981804","member":"true","charge":"Trespass Structure or Conveyance","lat":"27.66512695","lon":"-80.42757244017187","formatted":"Indian River County Sheriffs Office, 4055 41st Avenue, Vero Beach, FL 32960, United States of America"},
  {"location":"4055 41st Ave Vero Beach, Fl","date":"2025-04-25 00:00:00","url":"https://www.ircsheriff.org/booking-details/1506738868","member":"true","charge":"COC Civil (NON-CRIMINAL)","lat":"27.66512695","lon":"-80.42757244017187","formatted":"Indian River County Sheriffs Office, 4055 41st Avenue, Vero Beach, FL 32960, United States of America"},
  {"location":"4055 41st Ave, Vero Beach FL","date":"2025-08-07 00:00:00","url":"https://www.ircsheriff.org/booking-details/605039991","member":"true","charge":"MISD FTA","lat":"27.66512695","lon":"-80.42757244017187","formatted":"Indian River County Sheriffs Office, 4055 41st Avenue, Vero Beach, FL 32960, United States of America"},
  {"location":"4055 41st Ave, Vero beach Fl 32960","date":"2025-03-31 00:00:00","url":"https://www.ircsheriff.org/booking-details/1544397013","member":"true","charge":"MISD FTA","lat":"27.66512695","lon":"-80.42757244017187","formatted":"Indian River County Sheriffs Office, 4055 41st Avenue, Vero Beach, FL 32960, United States of America"},
  {"location":"4055 41st Ave, Vero Beach, Fl 32960","date":"2025-07-10 00:00:00","url":"https://www.ircsheriff.org/booking-details/1227320207","member":"true","charge":"COC Civil (NON-CRIMINAL)","lat":"27.66512695","lon":"-80.42757244017187","formatted":"Indian River County Sheriffs Office, 4055 41st Avenue, Vero Beach, FL 32960, United States of America"},
  {"location":"4055 41st Avenue Vero Beach, FL 32960","date":"2025-08-29 00:00:00","url":"https://www.ircsheriff.org/booking-details/1504446398","member":"false","charge":"MISD FTA","lat":"27.66512695","lon":"-80.42757244017187","formatted":"Indian River County Sheriffs Office, 4055 41st Avenue, Vero Beach, FL 32960, United States of America"},
  {"location":"5000 20th Street, Vero Beach Fl, 32966","date":"2025-03-28 00:00:00","url":"https://www.ircsheriff.org/booking-details/1807449449","member":"true","charge":"Trespass","lat":"27.638532671575426","lon":"-80.43781820492877","formatted":"5000 20th Street, Vero Beach, FL 32966, United States of America"},
  {"location":"5000 20TH Street, Vero Beach, FL 32966","date":"2025-06-26 00:00:00","url":"https://www.ircsheriff.org/booking-details/916935758","member":"false","charge":"Trespass","lat":"27.638532671575426","lon":"-80.43781820492877","formatted":"5000 20th Street, Vero Beach, FL 32966, United States of America"},
  {"location":"50000 20th Street Vero Beach, FL 32966","date":"2025-06-26 00:00:00","url":"https://www.ircsheriff.org/booking-details/1404637671","member":"false","charge":"Trespass","lat":"27.63912164089053","lon":"-80.48722059588133","formatted":"50000 20th Street, West Vero Corridor, FL 32966, United States of America"},
  {"location":"555 4th Street 81 Vero Beach, FL 32962","date":"2025-04-23 00:00:00","url":"https://www.ircsheriff.org/booking-details/1266948034","member":"false","charge":"Trespass","lat":"27.605155","lon":"-80.384796","formatted":"555 4th Street, Vero Beach, FL 32962, United States of America"},
  {"location":"5555 20th Street Vero Beach FL 32960","date":"2025-10-03 00:00:00","url":"https://www.ircsheriff.org/booking-details/1651084115","member":"false","charge":"Trespass","lat":"27.6372","lon":"-80.442782","formatted":"5555 20th Street, Vero Beach, FL 32966, United States of America"},
  {"location":"5555 20th Street Vero Beach FL 32966","date":"2025-08-09 00:00:00","url":"https://www.ircsheriff.org/booking-details/1114566049","member":"false","charge":"Trespass Structure or Conveyance","lat":"27.638927928571427","lon":"-80.44350779591836","formatted":"5555 20th Street, Vero Beach, FL 32966, United States of America"},
  {"location":"5905 20th Street Vero Beach, Fl 32966","date":"2025-03-24 00:00:00","url":"https://www.ircsheriff.org/booking-details/558100843","member":"false","charge":"Trespass","lat":"27.63823745","lon":"-80.44893651804679","formatted":"ABC Fine Wine and Spirits, 5905 20th Street, Vero Beach, FL 32966, United States of America"},
  {"location":"6 SOUTH OAK STREET FELLSMERE, FL 32948","date":"2025-05-10 00:00:00","url":"https://www.ircsheriff.org/booking-details/580300995","member":"false","charge":"Trespass Structure or Conveyance","lat":"27.765870948204807","lon":"-80.59629510524937","formatted":"6 South Oak Street, Fellsmere, FL 32948, United States of America"},
  {"location":"6155 COLLEGE LANE VERO BEACH FL 32966","date":"2025-08-26 00:00:00","url":"https://www.ircsheriff.org/booking-details/1213732505","member":"false","charge":"Trespass","lat":"27.6329345","lon":"-80.4542575","formatted":"6155 College Lane, Vero Beach, FL 32966, United States of America"},
  {"location":"6155 College Lane Vero Beach, FL 32966","date":"2025-06-21 00:00:00","url":"https://www.ircsheriff.org/booking-details/1076046948","member":"false","charge":"Trespass","lat":"27.6329345","lon":"-80.4542575","formatted":"6155 College Lane, Vero Beach, FL 32966, United States of America"},
  {"location":"6155 College Lane Vero Beach, FL 32966","date":"2025-05-30 00:00:00","url":"https://www.ircsheriff.org/booking-details/1136443678","member":"false","charge":"Trespass","lat":"27.6329345","lon":"-80.4542575","formatted":"6155 College Lane, Vero Beach, FL 32966, United States of America"},
  {"location":"6155 College Lane, Vero Beach FL 32966","date":"2025-03-31 00:00:00","url":"https://www.ircsheriff.org/booking-details/1948217885","member":"false","charge":"MISD FTA","lat":"27.6329345","lon":"-80.4542575","formatted":"6155 College Lane, Vero Beach, FL 32966, United States of America"},
  {"location":"636 26th Ave, Vero Beach Fl, 32962","date":"2025-03-28 00:00:00","url":"https://www.ircsheriff.org/booking-details/833675451","member":"true","charge":"Trespass","lat":"27.614329763429065","lon":"-80.4124124572938","formatted":"636 26th Avenue, Vero Beach, FL 32962, United States of America"},
  {"location":"660 S US Highway 1 Vero Beach, FL 32962","date":"2025-05-13 00:00:00","url":"https://www.ircsheriff.org/booking-details/1724072415","member":"false","charge":"Trespass","lat":"27.590786","lon":"-80.378412","formatted":"660 South Us Highway 1, Vero Beach, FL 32962, United States of America"},
  {"location":"6950 30th square 105 vero beach, fl 32966","date":"2025-05-10 00:00:00","url":"https://www.ircsheriff.org/booking-details/176484251","member":"false","charge":"MISD FTA","lat":"27.649216","lon":"-80.470898","formatted":"6950 30th Square, Vero Beach, FL 32966, United States of America"},
  {"location":"7945 US Hwy 1 14 Vero Beach, Fl 32967","date":"2025-10-04 00:00:00","url":"https://www.ircsheriff.org/booking-details/92561078","member":"false","charge":"COC Civil (NON-CRIMINAL)","lat":"27.738504","lon":"-80.43087","formatted":"7945 Us Highway 1, Vero Beach, FL 32967, United States of America"},
  {"location":"800 US1 HWY, Vero Beach FL 32960","date":"2025-05-22 00:00:00","url":"https://www.ircsheriff.org/booking-details/181345590","member":"false","charge":"Trespass","lat":"27.616574","lon":"-80.387653","formatted":"800 Us Highway 1, Vero Beach, FL 32960, United States of America"},
  {"location":"810 US HIGHWAY 1 VERO BEACH FL 32962","date":"2025-09-12 00:00:00","url":"https://www.ircsheriff.org/booking-details/122681270","member":"true","charge":"DL - No Valid DL","lat":"27.5876146","lon":"-80.3769259","formatted":"810 US Highway 1, Vero Beach, FL 32962, United States of America"},
  {"location":"8800 20th Street Vero Beach 32966","date":"2025-03-14 00:00:00","url":"https://www.ircsheriff.org/booking-details/942839571","member":"false","charge":"Trespass","lat":"27.63908566663959","lon":"-80.50927644827108","formatted":"8800 20th Street, West Vero Corridor, FL 32966, United States of America"},
  {"location":"9400 County Road 512 Sebastian, FL 32958","date":"2025-09-22 00:00:00","url":"https://www.ircsheriff.org/booking-details/1047379940","member":"false","charge":"DL - No Valid DL","lat":"27.770174","lon":"-80.517813","formatted":"9400 County Road 512, Sebastian, FL 32958, United States of America"}
]